[
    {
        "title":"王国维纪念碑",
        "type":"monument",
        "longitude":116.331268,
        "latitude":40.007979,
        "content":"<div class = 'contentstyle'>古今之成大事业、大学问者，罔不经过三种之境界：“昨夜西风凋碧树。独上高楼，望尽天涯路”，此第一境界也；“衣带渐宽终不悔，为伊消得人憔悴”，此第二境界也；“众里寻他千百度，慕然回首，那人正在灯火阑珊处”，此第三境界也。这就是在中国文艺批评史上具有重要意义的，王国维先生提出的境界说，出自他的代表作《人间词话》。</div >"
    },
    {
        "title":"祖国儿女，清华英烈-纪念碑",
        "type":"monument",
        "longitude":116.329314,
        "latitude":40.009568,
        "content":"<div class = 'contentstyle'>位置：水木清华北山</div><div class = 'contentstyle'>1989年9月，清华大学在建国40周年前夕为纪念在抗日战争和解放战争期间为革命牺牲的校友建立了清华英烈纪念碑。</div >"
    },
    {
        "title":"施滉纪念碑",
        "type":"monument",
        "longitude":116.335221,
        "latitude":40.008065,
        "content":"<div class = 'contentstyle'>位置：三教一段</div><div class = 'contentstyle'>简介：施滉，白族，1900年出生，云南省大理白族自治州洱源县人。1917年考入清华学校。1919年参加五四爱国运动，参与发起成立了清华学校第一个进步社团——“暑假修业团”，1920年改名为“唯真学会”，施滉任会长。</div >"
    },
    {
        "title":"闻一多纪念像和闻亭",
        "type":"monument",
        "longitude":116.329903,
        "latitude":40.009588,
        "content":"<div class = 'contentstyle'>位置：“水木清华”北山</div><div class = 'contentstyle'>简介：闻亭位于清华大学礼堂西侧的一座土山上，是一座古式六角亭。该亭原来是一座钟亭，亭内悬挂着一口明代嘉靖年间铸造的铜钟，径可四尺，建校初就已有，是为号令全校作息而建，其钟声清脆，远及海淀。抗日战争胜利后，清华大学从昆明迁回北京复校时，为了纪念闻一多先生1946年在昆明遇害，将该处命名为“闻亭”，亭内匾额由闻一多先生1921年的同级同学集资建成，“闻亭”二字由著名教授潘光旦所书。</div >"
    },
    {
        "title":"“三•一八”断碑",
        "type":"monument",
        "longitude":116.328582,
        "latitude":40.009419,
        "content":"<div class = 'contentstyle'>位置：“水木清华”北山</div><div class = 'contentstyle'>简介:在清华大学内“水木清华”北面土山之阴，建有“三•一八烈士韦杰三纪念碑”。这是清华学生在1926年从圆明园遗址运来的一根大理石断柱，人们称之为“三•一八断碑”。碑座上刻“韦杰三君死难纪念碑”，“本校学生会同人立”。清华同学曾将烈士遗骨安葬于清华园内，三周后移至圆明园与三•一八诸烈士合葬，于是在原墓址竖起断碑。</div >"
    },
    {
        "title":"纪毓秀烈士骨灰安放处",
        "type":"monument",
        "longitude":116.329018,
        "latitude":40.009426,
        "content":"<div class = 'contentstyle'>位置：水木清华北山</div><div class = 'contentstyle'>简介：纪毓秀骨灰安放处，位于“水木清华”北山上“清华英烈纪念碑”的附近，1989年10月立。纪毓秀，女，江苏宿迁人，1917年生，幼读于南京女中，1935年秋考入我校，先入电机工程系，后转入外国语文系。</div >"
    },
    {
        "title":"FIT 大楼",
        "type":"building",
        "longitude":116.338769,
        "latitude":40.002452,
        "content":"<div class = 'contentstyle'>清华大学信息科学技术大楼（以下简称FIT大楼）是一座5A级写字楼，由香港爱国人士李嘉诚先生投资、清华大学基建处兴建，是清华大学信息技术学院的所在地。</div >"
    },
    {
        "title":"9003大楼",
        "type":"building",
        "longitude":116.336748,
        "latitude":40.003302,
        "content":"<div class = 'contentstyle'>清华大学精密仪器与机械学系（简称精仪系）始建立于1932年，其前身为成立于1932年的清华大学工学院机械系，上个世纪50年代院系调整为清华大学机械制造系，60年代初又调整为精密仪器与机械系，80年代更名为现今的精密仪器与机械学系。</div >"
    },
    {
        "title":"明理楼 (法学院)",
        "type":"building",
        "longitude":116.338827,
        "latitude":40.003896,
        "content":"<div class = 'contentstyle'>1995年9月8日，清华大学正式恢复建立法律学系，系主任为著名法学家王叔文教授。1999年4月25日清华大学建校88年周年之际，清华大学法学院正式复建。院长为著名法学家王保树教授。该楼由曾在清华电机系短期工作过的香港中信泰富有限公司主席荣智健资助兴建，清华建筑设计研究院设计，1997年11月奠基，1999年底竣工。“明理楼”三个大字，取“求真宏道，深明义理，伸张正义”之意。</div >"
    },
    {
        "title":"技术科学楼",
        "type":"building",
        "longitude":116.339672,
        "latitude":40.0038898,
        "content":"<div class = 'contentstyle'>逸夫技术科学楼坐落在东区主楼以南的新教学科研区，地处新区现代建筑形式楼群的中央，平面布局如“口”字形，座东朝西，南邻华业大厦，北隔一块宽50米、长80米的大草坪，与建筑馆相望。</div >"
    },
    {
        "title":"中意清华环境节能楼",
        "type":"building",
        "longitude":116.341396,
        "latitude":40.004179,
        "content":"<div class = 'contentstyle'>由中国科技部和意大利环境与领土资源部共同建设的清华环境节能楼于2006年落成。这座融绿色、生态、环保、节能理念于一体的智能化教学科研办公楼，是清华大学环境科学与工程系的新系馆。大楼由意大利著名建筑设计师马利奥•古奇内拉设计。体现了人与自然融合的理念。</div >"
    },
    {
        "title":"建筑馆",
        "type":"building",
        "longitude":116.340256,
        "latitude":40.005157,
        "content":"<div class = 'contentstyle'>建筑学院是清华大学15个学院之一。建筑学院前身——清华大学建筑系由著名建筑学家梁思成先生于1946年10月创办。1988年成立建筑学院，设建筑系和城市规划系。</div >"
    },
    {
        "title":"伟伦楼（经管学院",
        "type":"building",
        "longitude":116.338773,
        "latitude":40.00524,
        "content":"<div class = 'contentstyle'>伟伦楼总建筑面积13170平方米，内设国际学术报告厅、案例教学教室、图书情报中心、语音实验室、管理信息系统实验室等，为我校经济管理学院教学与科研用楼。北楼正墙上镌刻着中国国务院总理兼清华经管学院院长朱镕基题写的“经济管理学院”院名。</div >"
    },
    {
        "title":"舜德楼",
        "type":"building",
        "longitude":116.337915,
        "latitude":40.004238,
        "content":"<div class = 'contentstyle'>舜德楼位于经管学院西侧，建筑面积18805平方米，分为南区、中区和北区三部分，南区一个12米高的过街楼与经管学院西南墙相连，北区与经管学院西北墙距离20米左右，中区连接南、北两区形成一个完整的建筑院落，与周围环境协调呼应。舜德楼内有经管学院和工业工程系，同时也是我校培训高级企业管理人员的主要场所。此建筑曾获得2001年度教育部优秀工程勘察设计一等奖</div >"
    },
    {
        "title":"美院大楼",
        "type":"building",
        "longitude":116.341441,
        "latitude":40.005398,
        "content":"<div class = 'contentstyle'>清华大学美术学院原为中央工艺美术学院,1999年5月20日学院并入清华大学，更名为清华大学美术学院,并且新建了系馆,极具艺术气息和现代感。</div >"
    },
    {
        "title":"清华主楼",
        "type":"building",
        "longitude":116.339074,
        "latitude":40.007257,
        "content":"<div class = 'contentstyle'>由“西主楼”、“东主楼”和“中央主楼”三部分组成，并以四个“过街楼”联成一个整体。整个建筑气势雄伟，浑然一体，是由清华大学有关专业的师生结合毕业设计而自行设计的校园杰作之一。清华主楼不仅在教学、科研中发挥着重要作用，并且是学校举办重大活动、接待重要来宾的主要场所。美国总统布什、联合国秘书长安南等许多政界领袖和诺贝尔奖获得者等学术大师、著名跨国公司总裁等企业名流，都曾在中央主楼向清华师生发表演讲。</div >"
    },
    {
        "title":"新清华学堂",
        "type":"building",
        "longitude":116.336285,
        "latitude":40.007271,
        "content":"<div class = 'contentstyle'>新清华学堂、校史馆、蒙明伟音乐厅是清华大学新的标志性建筑，三者连为一体。它们都落成于百年校庆之际，砖红色的外观既鲜明醒目，渲染了百年校庆的喜庆氛围，又体现了清华大学又红又专的优良传统。</div >"
    },
    {
        "title":"机械工程馆",
        "type":"building",
        "longitude":116.332238,
        "latitude":40.006918,
        "content":"<div class = 'contentstyle'>每逢金秋，清华大学二校门附近的银杏树会渐次披上金黄的外衣，微风吹过，片片银杏叶就像蝴蝶在飞舞。这里也成为这个时节清华最美的景点之一。在这些高大的银杏掩映之下，清华大学机械工程馆格外引人注目。 </div >"
    },
    {
        "title":"二校门",
        "type":"building",
        "longitude":116.330936,
        "latitude":40.006818,
        "content":"<div class = 'contentstyle'>二校门是清华的象征性建筑物，是不容忽视的校园历史坐标点。它那乳白色的石门流露出清丽庄严之美。石门上端的“清华园”三字出自时任军机大臣、中堂那桐之手。</div >"
    },
    {
        "title":"日晷",
        "type":"building",
        "longitude":116.331407,
        "latitude":40.007958,
        "content":"<div class = 'contentstyle'>1920（庚申）级同学毕业时献给母校的纪念物——日晷。它可供同学们上下课守时的参考，同时亦含有惜阴、即一寸光阴一寸金的意思。其正面（南面）为中文——“行胜于言”，背面（北面）为“行胜于言”的拉丁译文——“Facta Non Verba”。一侧为中文“庚申级立”，另一侧英文为Class 1920。</div >"
    },
    {
        "title":"旧土木工程馆",
        "type":"building",
        "longitude":116.332283,
        "latitude":40.007077,
        "content":"<div class = 'contentstyle'>旧土木馆算得上是清华早期建筑之一。作为这样的一栋老建筑，它伴随着清华见证了抗战、“文革”、改革开放等历史时期。这其中，它曾作为土木、环境等系的系馆，也曾是材料、机械等系的专业实验室，目睹了这些学科的发展，培育出了一代代的大家。</div >"
    },
    {
        "title":"清华学堂大楼",
        "type":"building",
        "longitude":116.331722,
        "latitude":40.008148,
        "content":"<div class = 'contentstyle'>这座式样别致的二层楼房为德国古典风格，青砖红瓦，坡顶陡起，它就是清华校园中的标志性建筑之一——清华学堂大楼。在清华建校初期兴建的第一批校舍中，清华学堂大楼被称为“一院”或“一院大楼”。1911年3月30日（阴历三月初一）“清华学堂暂行开学”这就是清华历史的开端。西部是高等科学生的教室，东部是高等科毕业班的学生宿舍，内部条件非常好。</div >"
    },
    {
        "title":"同方部",
        "type":"building",
        "longitude":116.331933,
        "latitude":40.008448,
        "content":"<div class = 'contentstyle'>同方部是清华最早的礼堂，欧式风格。（关于“同方部”的涵义有不同的解释，一种说法是：由于当年“清华学堂”为留美预备生而设，并无专业，“同方部”可能是今日的“基础课部”之意。二，更普遍的则认为，“同方”两字源于《礼记•儒行》中：“儒有合志同方，营道同术，并立则乐，相下不厌……”；“方”作“道义”、“法则”解，“同方部”就是“志同道合者相聚的地方”。）</div >"
    },
    {
        "title":"新水利馆",
        "type":"building",
        "longitude":116.332171,
        "latitude":40.009488,
        "content":"<div class = 'contentstyle'>1929年，清华大学工学院设立土木工程系，其中的水利组成为水利系的前身。1951年，教育部决定在清华大学工学院设立水利工程系和水力发电工程系，1952年，院系调整，清华大学成立水利工程系。水利系历史悠久，英才汇聚，在新中国水利水电工程的设计施行上，发挥了巨大的作用。</div >"
    },
    {
        "title":"文西楼（宏盟楼）",
        "type":"building",
        "longitude":116.332674,
        "latitude":40.008638,
        "content":"<div class = 'contentstyle'>宏盟楼原名为电机工程馆，建成于1934年。二十世纪初五十年代初，前总理朱镕基曾在此学习。1990年2月23日， 本楼被北京市政府列为清华大学早期建筑文物之一，现为新闻与传播学院院馆。宏盟集团是全球最大的广告传媒集团。2006年4月7日，宏盟集团捐资用于大楼的改造与维护，本大楼冠名为宏盟楼。</div >"
    },
    {
        "title":"“仁者乐山，智者乐水”",
        "type":"scence",
        "longitude":116.332198,
        "latitude":40.008949,
        "content":"<div class = 'contentstyle'>新水利馆旁边的草坪上是一个校友赠送的雕塑。它的左边是坚硬的山石的形象，右边是柔和的水的形象，这就是它的名字“智者乐水，仁者乐山”的由来。</div >"
    },
    {
        "title":"大礼堂",
        "type":"building",
        "longitude":116.330832,
        "latitude":40.009336,
        "content":"<div class = 'contentstyle'>仿自美国弗吉尼亚大学图书馆，由美国人H.K.Murphy于1914年设计，1920年落成，是一座兼有古希腊和古罗马风格的建筑。初建成时，大礼堂是全国最好的建筑之一。而今大礼堂已成为清华人的精神家园，也是清华大学百年校庆标志的主体图案。</div >"
    },
    {
        "title":"图书馆",
        "type":"building",
        "longitude":116.331614,
        "latitude":40.010479,
        "content":"<div class = 'contentstyle'>清华图书馆现藏书约400万册。图书馆分三期建成。第一期老馆由H.K.Murphy于1914年设计，1919年落成。第二期扩建由杨廷宝主持，1931年落成。第三期也就是新馆由关肇邺设计，1991年落成。其中后两期的设计者均是清华人。图书馆的三期建筑和谐而统一，凝聚着两个国家三代建筑师的心血，也倍受清华学子的喜爱。</div >"
    },
    {
        "title":"西阶",
        "type":"building",
        "longitude":116.330406,
        "latitude":40.008904,
        "content":"<div class = 'contentstyle'>“西阶”始建于1952年，位于轴线西侧，南临科学馆，北望大礼堂，是此区中体量最小的一栋建筑。2005年，由于科学馆翻修之后要加建供整个礼堂前区使用的消防水池，只能利用西阶教室现有用地的地下空间，因此学校确定由关肇邺院士主持西阶重建的方案设计。完全按现状的西阶体量重新设计新的西阶教室。</div >"
    },
    {
        "title":"科学馆",
        "type":"building",
        "longitude":116.330428,
        "latitude":40.008597,
        "content":"<div class = 'contentstyle'>科学馆建于1917年，1919年落成，设计者为H.K.Murphy。初建时有地上建筑三层，地下建筑一层，文革时屋顶被烧毁，后修复。其门额上的SCIENCE BVILDING为仿古写法。科学馆曾是国内最先进的物理、化学教育和实验基地之一，从这里走出了一大批有杰出贡献的科学家，包括14位“两弹一星”元勋。</div >"
    },
    {
        "title":"自清亭",
        "type":"scence",
        "longitude":116.329844,
        "latitude":40.009367,
        "content":"<div class = 'contentstyle'>朱自清，现代著名散文家、诗人、学者、民主战士。1978年该亭改名“自清亭”以纪念朱自清先生。自清亭与朱自清雕像隔荷塘相遥望，但朱自清笔下的荷塘其实在近春园环池的西北隅。</div >"
    },
    {
        "title":"水木清华",
        "type":"scence",
        "longitude":116.329359,
        "latitude":40.009077,
        "content":"<div class = 'contentstyle'>“水木清华”的主体景观是工字厅后面的一个荷塘，荷塘之畔垂杨山水之中掩映着一幢秀雅的古建筑。荷塘南侧的古建本为工字厅的后厦，为“水木清华”的正廊，正额“水木清华”，正廊朱柱上悬有清代道光进士，咸丰、同治、光绪三代礼部侍郎殷兆镛的名联：“槛外山光历春夏秋冬万千变幻都非凡境，窗中云影任东南西北去来澹荡洵是仙居”。</div >"
    },
    {
        "title":"自清像",
        "type":"scence",
        "longitude":116.328631,
        "latitude":40.009222,
        "content":"<div class = 'contentstyle'>朱自清全身坐姿大理石雕像，洁白如玉，象征着主人公的高风亮节。此像与自清亭隔池相望，先生神色严肃，目光深邃而温和地注视着自己的亭子，下面标有一行字：“朱自清教授，文学家1898-1948”。雕像后树木繁茂，雕像旁杨柳依依。当年这一雕像落成之际，已是耄耋之龄、双目失明的朱自清夫人陈竹隐用颤抖的双手抚摸着整座雕像，其情其景，令人潸然泪下。</div >"
    },
    {
        "title":"工字厅",
        "type":"scence",
        "longitude":116.329256,
        "latitude":40.008856,
        "content":"<div class = 'contentstyle'>工字厅原名工字殿，因其整体形状像工字而得名。其匾额“清华园”为咸丰帝亲题。工字厅为清华园的主体建筑，院内被隔成一座座独立的小套院。厅北遥望即可看到“水木清华”。工字厅现用作校党政机关的办公地点。</div >"
    },
    {
        "title":"古月堂",
        "type":"scence",
        "longitude":116.329099,
        "latitude":40.008801,
        "content":"<div class = 'contentstyle'>古月堂建于道光二年后，初用作书房，建校后成为教师宿舍，在1928年清华开始招收女生后又成为清华最早的女生宿舍。古月堂别称“狐堂”，由古月二字拼字谐音而得，因其为女生宿舍，对男生便添一分神秘与诱惑。</div >"
    },
    {
        "title":"水木清华石刻",
        "type":"scence",
        "longitude":116.328506,
        "latitude":40.009315,
        "content":"<div class = 'contentstyle'>石刻为深圳校友会在母校90周年校庆前夕捐赠。诗句“景昃鸣禽集，水木湛清华”出自东晋谢混的诗《游西池》，“水木清华”四字源此得来。诗句的大致含义为：“天色渐晚，在夕阳斜照之下，飞鸟归巢，鸣叫着欢聚枝头。此刻，落日的余晖流洒在池面树梢，水含清光，树现秀色，水清木华。”西池的景色，使人陶醉，而日暮昏黄之景又触发了诗人迟暮之感，因而取用象征手法，倾吐时不我待的情怀。</div >"
    },
    {
        "title":"近春园",
        "type":"scence",
        "longitude":116.326026,
        "latitude":40.007544,
        "content":"<div class = 'contentstyle'>近春园始建于清康熙时代，原名熙春园，与圆明园、长春园、绮春园（或称万春园）和春熙院一起形成了北京西郊的“圆明五园”。后来熙春园被分成了两部分，东边还叫熙春园，西边则叫近春园。这里曾经是道光帝四弟的王府，所以又被称为“四爷园”，里面尽是一片繁华雍容、团花似锦的热闹景象。</div >"
    },
    {
        "title":"绿园",
        "type":"scence",
        "longitude":116.324643,
        "latitude":40.006607,
        "content":"<div class = 'contentstyle'>“绿园”地处校园西部，临万泉河，占地约20亩。院内栽植各类植物110余种，按植物的观赏特性与用途划分为8个区，鲜明的景观特色与周围的环境相结合，形成高低错落，疏密有致，乔、灌、草相结合的植物群落，是一处既有优美的园林外貌，又能够普及园林知识的游憩场所。</div >"
    },
    {
        "title":"零零阁",
        "type":"scence",
        "longitude":116.32604,
        "latitude":40.006894,
        "content":"<div class = 'contentstyle'>零零阁是1995由六五级的学长们捐资修建，以纪念他们入学三十周年、毕业二十五周年。他们入学时适逢清华学制由六年改为五年，所以与一九六四年入学的学长一起于一九七○年毕业。六四级学长以「零」字编班，六五级的学生则冠以「零零」的特称。在零零阁二层可以俯瞰清华，但是楼梯较陡，一定要当心！</div >"
    },
    {
        "title":"西湖游泳池",
        "type":"scence",
        "longitude":116.325636,
        "latitude":40.006124,
        "content":"<div class = 'contentstyle'>清华“西湖游泳池”位于西校门里东西主干道北侧，因其地处“近春园”环湖之畔、西校门附近，故称之“西湖游泳池。清华建校早年，游泳一直被列为正课，更是关乎学生是否能够顺利毕业的“体能测验”中的重要项目。随着学校的发展，原有的室内游泳池越来越不能满足师生们的需求，于是就有了1958年西湖游泳池的修建。游泳池的土方工程是发动全校师生义务劳动完成的，蒋南翔校长亲自主持了当年8月15日的竣工典礼。</div >"
    },
    {
        "title":"西院",
        "type":"scence",
        "longitude":116.323026,
        "latitude":40.008915,
        "content":"<div class = 'contentstyle'>地处西校门里的西院住宅区分新、旧两部分。旧西院建于1924年，1933年扩建的部分称为新西院。从“旧西院”建成起，在校任职、任教的一些著名学者即开始在此定居，许多名人轶事也因此出自西院。如朱自清的《荷塘月色》就是在这里的寓所写成的；著名科学家杨振宁（杨武之子）、“两弹”元勋邓稼先（邓以蛰之子）在这里度过了幼年时光，据杨振宁回忆，西院周围“几乎每一棵树我们都曾经爬过，每一棵草我们都研究过”。而王国维在离开家去颐和园投湖自沉前的最后十几个小时，还在西院42号的家中接待了来访的两位研究院的同学。</div >"
    },
    {
        "title":"情人坡——北院故址",
        "type":"scence",
        "longitude":116.331856,
        "latitude":40.011661,
        "content":"<div class = 'contentstyle'>情人坡西临校图书馆，东侧环绕小河，面临通往理学院的主道。其本是一片连续的小丘陵,由于绿草覆盖,坡上古树茂密,对面是一小片树林。其与主干道通过回廊隔开，回廊两旁有绿藤缠绕，尽头有石阶石凳。在宁谧的夏夜，夜幕笼罩下幽静的情人坡上出现了一对对情侣的身影。这即是情人坡名字的由来。</div >"
    },
    {
        "title":"西区体育馆和西大操场",
        "type":"scence",
        "longitude":116.328735,
        "latitude":40.01087,
        "content":"<div class = 'contentstyle'>清华第一个体育馆——西区体育馆，也是清华早期四大建筑之一，位于校园西北部。而它的东侧，则是清华第一个运动场——西大操场。这里是清华早期学校主要举行集会的地方，见证了那个风起云涌的年代里，清华师生为国家存亡、民族复兴做出的努力和抗争。1919年“五四”运动爆发次日，清华学生在体育馆前召开全校大会，高呼“收复失地”、“废除21条”等口号。9日又在体育馆举行“国耻纪念会”，宣誓“愿牺牲生命以保护中华民国人民、土地、主权”，会后在西大操场焚烧了校内的日货。</div >"
    },
    {
        "title":"艺教中心",
        "type":"building",
        "longitude":116.336613,
        "latitude":40.007512,
        "content":"<div class = 'contentstyle'>清华大学艺教中心始于清华早期的音乐室。清华大学的艺术教育始自于建校初期，20世纪30年代建立了中乐部、西乐部，逐步开展了较为系统的普通音乐教育；1946年成立了音乐室；1949年以后，音乐室曾经是中国普通高校中唯一的艺术教育机构；随着清华大学艺术教育的发展，1993 年音乐室更名为艺术教育中心。</div >"
    },
    {
        "title":"理科楼",
        "type":"building",
        "longitude":116.325407,
        "latitude":40.011232,
        "content":"<div class = 'contentstyle'>清华大学理科楼建在清华园的西区。用地四周都是上世纪30年代由建筑界前辈杨延宝、沈理源设计建成的，有生物馆、化学馆、气象台和体育馆。这些建筑均已被定为北京市重点保护文物。新楼的设计理念是充分尊重原有建筑的历史地位，新老建筑共同组成一个和谐的建筑整体。新楼包括物理馆、数学馆（二者联为一体）和生命科学馆三部分。数理二馆间设有过街拱门，使原来生物、化学二馆之间的轴线得以贯通。在新数学、物理大楼和旧化学馆之间形成了以拱廊环抱的围合庭院并设置了一个有简单表演台的下沉广场。这里遂成为可供自由参加的集会、演出和休闲交往的场所，充分体现了校园文化生活特征。物理、数学二馆的主入设在庭院东南、西南的两个凹角处，令人联想到在老清华建筑中常用的类似手法而产生一份厚重的历史感和亲切感。 透过数学、物理二馆间的拱门向南北望去，便可得到画框衬托下的两幅不同的优美景观。在理学院的南半部视野一下子开阔起来。这里有山有水，有大草坪，建筑物也前后参差、高低错落。显示出较自然的景观，与北部人工化的,对称布局的庭院形成有趣的对比。新老建筑溶合成有机的整体，气氛安宁、环境优雅，很好地表现了高等学府建筑环境应有的文化性学术性品位。</div >"
    },
    {
        "title":"化学馆",
        "type":"building",
        "longitude":116.326098,
        "latitude":40.011858,
        "content":"<div class = 'contentstyle'>化学馆位于清华大学校园西北隅，与理学楼一路之隔、南北相望。该馆建于1931年，总建筑面积5722平方米。这栋四层建筑物在解放前是清华园里仅次于气象台的“高层建筑”。 </div >"
    },
    {
        "title":"何添楼",
        "type":"building",
        "longitude":116.326925,
        "latitude":40.012006,
        "content":"<div class = 'contentstyle'>何添楼，由清华大学建筑设计研究院、同时也主持修建了逸夫馆第三期工程的关肇邺院士设计而成。乃香港资深银行家及企业家何添博士捐资1700万港元（清华注资1800万人民币）兴建。为感谢何添博士捐资兴教，为国育才之义举，将化学新馆命名为“何添楼”。何添楼高四层，外观大气，高长的玻璃镶嵌感觉到强烈的时代气息，真正为“新化学”象征。何添楼内错落典雅，黑色的天花板配以白色梯栏，显现别致，尤其是楼内红砖，饱含中国韵味，新鲜的时代气息中又有古典的意味。楼内装配齐整，条件优越，常为化学系重大学术报告交流会议场所。</div >"
    },
    {
        "title":"医学科学楼",
        "type":"building",
        "longitude":116.325016,
        "latitude":40.009782,
        "content":"<div class = 'contentstyle'>郑裕彤医学楼为清华大学医学院二期建筑，位于清华大学校园西部，是生命医学研究中心的医学教学中心，项目规划建筑面积17922.8平方米，其中地上11605平方米，地下6317.8平方米，地上四层、地下两层。计划增加建设70个左右独立实验室、教室和功能用房及教授办公室。</div >"
    },
    {
        "title":"天文台",
        "type":"scence",
        "longitude":116.325586,
        "latitude":40.010241,
        "content":"<div class = 'contentstyle'>天文台的前身是建成于1931年夏的国立清华大学气象台。为了提供最好的研究条件，办出一流的气象学，学校投资三万三千余元修建了此气象台，并按照国际标准条例配置仪器、设备。当时在华北地区，清华大学气象系的资料是最完整、最准确、最全面、最可靠的，北京、天津、太原等地的营造建设单位常到清华气象系收集资料，咨询问题。遗憾的是，到了1952年，随着清华的院系调整，气象系被并入北京大学。由于长时间的无人照看、维修，气象台越来越破旧。直到1997年，清华大学才改变了“无法无天”（法律和天文）的状况，随着天体物理学科的逐步建成，气象台也更名为天文台。</div >"
    },
    {
        "title":"生物旧馆",
        "type":"building",
        "longitude":116.326404,
        "latitude":40.009129,
        "content":"<div class = 'contentstyle'>在清华气象台的南侧，有一座坐南朝北的西洋古典风格的建筑，这就是生物旧馆。</div>"
    },
    {
        "title":"生物新馆",
        "type":"building",
        "longitude":116.323215,
        "latitude":40.010718,
        "content":"<div class = 'contentstyle'>生物新馆坐落于清华大学西侧理学院建筑群中，北临理学院，南傍校河，与生物旧馆遥相呼应。生物新馆于1999年暑假完工并交付使用，由清华大学建筑学院教授关肇邺设计，又名“伟伦馆”。</div >"
    },
    {
        "title":"化工电大楼",
        "type":"building",
        "longitude":116.342694,
        "latitude":40.00879,
        "content":"<div class = 'contentstyle'>化工电大楼一共三座，包括伟清楼，英士楼，刘卿楼。伟清楼坐落在东区东主楼东北侧，明德路边，东邻地铁13号线，北望清华电子罗姆楼，座北朝南。大楼建筑面积近10000平方米，内有研究所、实验室、报告厅等若干。伟清楼由香港伟新实业集团和教育基金会、清华大学共同出资，于2006年10月15日开工建设，与2008年12月25日完工。</div >"
    },
    {
        "title":"罗姆楼",
        "type":"building",
        "longitude":116.342879,
        "latitude":40.011398,
        "content":"<div class = 'contentstyle'>“清华罗姆电子工程馆”由日本知名半导体供应商罗姆株式会社捐资建设，于2011年4月22日，在清华大学百年华诞之际，举行开馆典礼。</div >"
    },
    {
        "title":"焊接馆（机械工程系）",
        "type":"building",
        "longitude":116.336963,
        "latitude":40.007302,
        "content":"<div class = 'contentstyle'>焊接馆是机械工程系系馆，机械工程系，源于1932年成立的机械工程学系，是清华大学最早成立的工科系之一。</div >"
    },
    {
        "title":"何善衡楼（土木馆）",
        "type":"building",
        "longitude":116.337049,
        "latitude":40.009371,
        "content":"<div class = 'contentstyle'>“土木馆—何善衡楼”由香港著名实业家、银行家何善衡博士捐助800万港币与国家211工程拨款兴建，1996年9月奠基，历时两年建成。 </div >"
    },
    {
        "title":"凯风人文社科图书馆",
        "type":"building",
        "longitude":116.334668,
        "latitude":40.009941,
        "content":"<div class = 'contentstyle'>清华大学人文社科图书馆于2011年4月百年校庆期间正式落成并投入服务运行。她将通过丰富的馆藏资源、舒适的阅读环境、灵活的服务形式、便捷的服务设施为全校师生的学习和研究提供信息服务和支撑，成为学术资源、学术活动、文化展示和开放交流的重要场所。</div >"
    },
    {
        "title":"汽车楼",
        "type":"building",
        "longitude":116.336914,
        "latitude":40.011785,
        "content":"<div class = 'contentstyle'>“汽车楼”和Π字型的汽车试验室、发动机试验室隶属于汽车工程系，总建筑面积3000平方米，于1956年落成。</div >"
    },
    {
        "title":"团委",
        "type":"building",
        "longitude":116.333744,
        "latitude":40.010582,
        "content":"<div class = 'contentstyle'>清华大学校团委所在地，又称小红楼</div >"
    }
]